{"type":"FeatureCollection","features":[{"type":"Feature","properties":{"name":"Alkmaar","lat":"52.63777924","lon":"4.739722252"},"geometry":{"type":"Point","coordinates":[4.739722,52.637779]}},{"type":"Feature","properties":{"name":"Almelo","lat":"52.35805511","lon":"6.653888702"},"geometry":{"type":"Point","coordinates":[6.653889,52.358055]}},{"type":"Feature","properties":{"name":"Almere Centrum","lat":"52.37503","lon":"5.21764"},"geometry":{"type":"Point","coordinates":[5.21764,52.37503]}},{"type":"Feature","properties":{"name":"Alphen a/d Rijn","lat":"52.12444305","lon":"4.657777786"},"geometry":{"type":"Point","coordinates":[4.657778,52.124443]}},{"type":"Feature","properties":{"name":"Amersfoort","lat":"52.1538887","lon":"5.370555401"},"geometry":{"type":"Point","coordinates":[5.370555,52.153889]}},{"type":"Feature","properties":{"name":"Amsterdam Amstel","lat":"52.34666824","lon":"4.917778015"},"geometry":{"type":"Point","coordinates":[4.917778,52.346668]}},{"type":"Feature","properties":{"name":"Amsterdam Centraal","lat":"52.37888718","lon":"4.900277615"},"geometry":{"type":"Point","coordinates":[4.900278,52.378887]}},{"type":"Feature","properties":{"name":"Amsterdam Sloterdijk","lat":"52.38888931","lon":"4.837777615"},"geometry":{"type":"Point","coordinates":[4.837778,52.388889]}},{"type":"Feature","properties":{"name":"Amsterdam Zuid","lat":"52.338889","lon":"4.872356"},"geometry":{"type":"Point","coordinates":[4.872356,52.338889]}},{"type":"Feature","properties":{"name":"Apeldoorn","lat":"52.20916748","lon":"5.970277786"},"geometry":{"type":"Point","coordinates":[5.970278,52.209167]}},{"type":"Feature","properties":{"name":"Arnhem Centraal","lat":"51.98500061","lon":"5.899166584"},"geometry":{"type":"Point","coordinates":[5.899167,51.985001]}},{"type":"Feature","properties":{"name":"Assen","lat":"52.99166489","lon":"6.570833206"},"geometry":{"type":"Point","coordinates":[6.570833,52.991665]}},{"type":"Feature","properties":{"name":"Beverwijk","lat":"52.47833252","lon":"4.656666756"},"geometry":{"type":"Point","coordinates":[4.656667,52.478333]}},{"type":"Feature","properties":{"name":"Breda","lat":"51.59555435","lon":"4.78000021"},"geometry":{"type":"Point","coordinates":[4.78,51.595554]}},{"type":"Feature","properties":{"name":"Castricum","lat":"52.54583359","lon":"4.658611298"},"geometry":{"type":"Point","coordinates":[4.658611,52.545834]}},{"type":"Feature","properties":{"name":"Delft","lat":"52.00666809","lon":"4.356389046"},"geometry":{"type":"Point","coordinates":[4.356389,52.006668]}},{"type":"Feature","properties":{"name":"Den Haag Centraal","lat":"52.08027649","lon":"4.324999809"},"geometry":{"type":"Point","coordinates":[4.325,52.080276]}},{"type":"Feature","properties":{"name":"Den Haag HS","lat":"52.06972122","lon":"4.322500229"},"geometry":{"type":"Point","coordinates":[4.3225,52.069721]}},{"type":"Feature","properties":{"name":"Den Haag Laan v NOI","lat":"52.07860947","lon":"4.342777729"},"geometry":{"type":"Point","coordinates":[4.342778,52.078609]}},{"type":"Feature","properties":{"name":"Den Helder","lat":"52.95527649","lon":"4.761111259"},"geometry":{"type":"Point","coordinates":[4.761111,52.955276]}},{"type":"Feature","properties":{"name":"Deventer","lat":"52.25749969","lon":"6.160555363"},"geometry":{"type":"Point","coordinates":[6.160555,52.2575]}},{"type":"Feature","properties":{"name":"Dieren","lat":"52.04499817","lon":"6.103055477"},"geometry":{"type":"Point","coordinates":[6.103055,52.044998]}},{"type":"Feature","properties":{"name":"Dordrecht","lat":"51.80722046","lon":"4.66833353"},"geometry":{"type":"Point","coordinates":[4.668334,51.80722]}},{"type":"Feature","properties":{"name":"Ede-Wageningen","lat":"52.02777863","lon":"5.673055649"},"geometry":{"type":"Point","coordinates":[5.673056,52.027779]}},{"type":"Feature","properties":{"name":"Eindhoven","lat":"51.44333267","lon":"5.481389046"},"geometry":{"type":"Point","coordinates":[5.481389,51.443333]}},{"type":"Feature","properties":{"name":"Enschede","lat":"52.22249985","lon":"6.889999866"},"geometry":{"type":"Point","coordinates":[6.89,52.2225]}},{"type":"Feature","properties":{"name":"Etten-Leur","lat":"51.57500076","lon":"4.635833263"},"geometry":{"type":"Point","coordinates":[4.635833,51.575001]}},{"type":"Feature","properties":{"name":"Gouda","lat":"52.01750183","lon":"4.704444408"},"geometry":{"type":"Point","coordinates":[4.704444,52.017502]}},{"type":"Feature","properties":{"name":"Groningen","lat":"53.21055603","lon":"6.564722061"},"geometry":{"type":"Point","coordinates":[6.564722,53.210556]}},{"type":"Feature","properties":{"name":"Haarlem","lat":"52.38777924","lon":"4.638333321"},"geometry":{"type":"Point","coordinates":[4.638333,52.387779]}},{"type":"Feature","properties":{"name":"Heemstede-Aerdenhout","lat":"52.35916519","lon":"4.606666565"},"geometry":{"type":"Point","coordinates":[4.606667,52.359165]}},{"type":"Feature","properties":{"name":"Heerenveen","lat":"52.96138763","lon":"5.914166451"},"geometry":{"type":"Point","coordinates":[5.914166,52.961388]}},{"type":"Feature","properties":{"name":"Heerlen","lat":"50.89083481","lon":"5.974999905"},"geometry":{"type":"Point","coordinates":[5.975,50.890835]}},{"type":"Feature","properties":{"name":"Helmond","lat":"51.47555542","lon":"5.661944389"},"geometry":{"type":"Point","coordinates":[5.661944,51.475555]}},{"type":"Feature","properties":{"name":"Hengelo","lat":"52.26166534","lon":"6.793889046"},"geometry":{"type":"Point","coordinates":[6.793889,52.261665]}},{"type":"Feature","properties":{"name":"Hilversum","lat":"52.22583389","lon":"5.18194437"},"geometry":{"type":"Point","coordinates":[5.181944,52.225834]}},{"type":"Feature","properties":{"name":"Hoorn","lat":"52.64472198","lon":"5.055555344"},"geometry":{"type":"Point","coordinates":[5.055555,52.644722]}},{"type":"Feature","properties":{"name":"Leeuwarden","lat":"53.19583511","lon":"5.792222023"},"geometry":{"type":"Point","coordinates":[5.792222,53.195835]}},{"type":"Feature","properties":{"name":"Leiden Centraal","lat":"52.16611099","lon":"4.481666565"},"geometry":{"type":"Point","coordinates":[4.481667,52.166111]}},{"type":"Feature","properties":{"name":"Lelystad Centrum","lat":"52.50777817","lon":"5.472777843"},"geometry":{"type":"Point","coordinates":[5.472778,52.507778]}},{"type":"Feature","properties":{"name":"Maastricht","lat":"50.85027695","lon":"5.705555439"},"geometry":{"type":"Point","coordinates":[5.705555,50.850277]}},{"type":"Feature","properties":{"name":"Nijmegen","lat":"51.84361267","lon":"5.852222443"},"geometry":{"type":"Point","coordinates":[5.852222,51.843613]}},{"type":"Feature","properties":{"name":"Oss","lat":"51.76555634","lon":"5.532222271"},"geometry":{"type":"Point","coordinates":[5.532222,51.765556]}},{"type":"Feature","properties":{"name":"Roermond","lat":"51.1930542","lon":"5.994166851"},"geometry":{"type":"Point","coordinates":[5.994167,51.193054]}},{"type":"Feature","properties":{"name":"Roosendaal","lat":"51.54027939","lon":"4.458333492"},"geometry":{"type":"Point","coordinates":[4.458333,51.540279]}},{"type":"Feature","properties":{"name":"Rotterdam Alexander","lat":"51.95194626","lon":"4.553611279"},"geometry":{"type":"Point","coordinates":[4.553611,51.951946]}},{"type":"Feature","properties":{"name":"Rotterdam Blaak","lat":"51.92027664","lon":"4.488888741"},"geometry":{"type":"Point","coordinates":[4.488889,51.920277]}},{"type":"Feature","properties":{"name":"Rotterdam Centraal","lat":"51.92499924","lon":"4.46888876"},"geometry":{"type":"Point","coordinates":[4.468889,51.924999]}},{"type":"Feature","properties":{"name":"Schiedam Centrum","lat":"51.92124381","lon":"4.408993721"},"geometry":{"type":"Point","coordinates":[4.408994,51.921244]}},{"type":"Feature","properties":{"name":"Schiphol Airport","lat":"52.30944443","lon":"4.761944294"},"geometry":{"type":"Point","coordinates":[4.761944,52.309444]}},{"type":"Feature","properties":{"name":"Sittard","lat":"51.00166702","lon":"5.858611107"},"geometry":{"type":"Point","coordinates":[5.858611,51.001667]}},{"type":"Feature","properties":{"name":"Steenwijk","lat":"52.79151099","lon":"6.114555763"},"geometry":{"type":"Point","coordinates":[6.114556,52.791511]}},{"type":"Feature","properties":{"name":"Tilburg","lat":"51.5605545","lon":"5.083611012"},"geometry":{"type":"Point","coordinates":[5.083611,51.560555]}},{"type":"Feature","properties":{"name":"Utrecht Centraal","lat":"52.08889008","lon":"5.110277653"},"geometry":{"type":"Point","coordinates":[5.110278,52.08889]}},{"type":"Feature","properties":{"name":"Venlo","lat":"51.36360931","lon":"6.172777653"},"geometry":{"type":"Point","coordinates":[6.172778,51.363609]}},{"type":"Feature","properties":{"name":"Vlissingen","lat":"51.44583511","lon":"3.595277786"},"geometry":{"type":"Point","coordinates":[3.595278,51.445835]}},{"type":"Feature","properties":{"name":"Weert","lat":"51.24861145","lon":"5.703610897"},"geometry":{"type":"Point","coordinates":[5.703611,51.248611]}},{"type":"Feature","properties":{"name":"Zaandam","lat":"52.43888855","lon":"4.813611031"},"geometry":{"type":"Point","coordinates":[4.813611,52.438889]}},{"type":"Feature","properties":{"name":"Zutphen","lat":"52.14527893","lon":"6.19416666"},"geometry":{"type":"Point","coordinates":[6.194167,52.145279]}},{"type":"Feature","properties":{"name":"Zwolle","lat":"52.5047226","lon":"6.091944218"},"geometry":{"type":"Point","coordinates":[6.091944,52.504723]}},{"type":"Feature","properties":{"name":"s-Hertogenbosch","lat":"51.69048","lon":"5.29362"},"geometry":{"type":"Point","coordinates":[5.29362,51.69048]}}]}